[
	{
		"_id": "5a6baefb40c79335e41810b3",
		"latitude": 52.986375,
		"Customer_id": 12,
		"name": "Christina McArdle",
		"longitude": -6.043701,
		"distanceFromDublinKM": 41.77
	},
	{
		"_id": "5a6baefb40c79335e41810b5",
		"latitude": 51.92893,
		"Customer_id": 1,
		"name": "Alice Cahill",
		"longitude": -10.27699,
		"distanceFromDublinKM": 313.26
	},
	{
		"_id": "5a6baefb40c79335e41810b4",
		"latitude": 52.3191841,
		"Customer_id": 3,
		"name": "Jack Enright",
		"longitude": -8.5072391,
		"distanceFromDublinKM": 188.96
	},
	{
		"_id": "5a6baefb40c79335e41810b6",
		"latitude": 51.8856167,
		"Customer_id": 2,
		"name": "Ian McArdle",
		"longitude": -10.4240951,
		"distanceFromDublinKM": 324.37
	},
	{
		"_id": "5a6baefb40c79335e41810b8",
		"latitude": 53.4692815,
		"Customer_id": 7,
		"name": "Frank Kehoe",
		"longitude": -9.436036,
		"distanceFromDublinKM": 211.17
	},
	{
		"_id": "5a6baefb40c79335e41810b7",
		"latitude": 53.807778,
		"Customer_id": 28,
		"name": "Charlie Halligan",
		"longitude": -7.714444,
		"distanceFromDublinKM": 109.38
	},
	{
		"_id": "5a6baefb40c79335e41810b9",
		"latitude": 54.0894797,
		"Customer_id": 8,
		"name": "Eoin Ahearn",
		"longitude": -6.18671,
		"distanceFromDublinKM": 83.53
	},
	{
		"_id": "5a6baefb40c79335e41810ba",
		"latitude": 53.038056,
		"Customer_id": 26,
		"name": "Stephen McArdle",
		"longitude": -7.653889,
		"distanceFromDublinKM": 98.87
	},
	{
		"_id": "5a6baefb40c79335e41810bb",
		"latitude": 54.1225,
		"Customer_id": 27,
		"name": "Enid Gallagher",
		"longitude": -8.143333,
		"distanceFromDublinKM": 151.54
	},
	{
		"_id": "5a6baefb40c79335e41810bc",
		"latitude": 53.1229599,
		"Customer_id": 6,
		"name": "Theresa Enright",
		"longitude": -6.2705202,
		"distanceFromDublinKM": 24.09
	},
	{
		"_id": "5a6baefb40c79335e41810bd",
		"latitude": 52.2559432,
		"Customer_id": 9,
		"name": "Jack Dempsey",
		"longitude": -7.1048927,
		"distanceFromDublinKM": 133.26
	},
	{
		"_id": "5a6baefb40c79335e41810be",
		"latitude": 52.240382,
		"Customer_id": 10,
		"name": "Georgina Gallagher",
		"longitude": -6.972413,
		"distanceFromDublinKM": 131.32
	},
	{
		"_id": "5a6baefb40c79335e41810bf",
		"latitude": 53.2451022,
		"Customer_id": 4,
		"name": "Ian Kehoe",
		"longitude": -6.238335,
		"distanceFromDublinKM": 10.57
	},
	{
		"_id": "5a6baefb40c79335e41810c1",
		"latitude": 53.008769,
		"Customer_id": 11,
		"name": "Richard Finnegan",
		"longitude": -6.1056711,
		"distanceFromDublinKM": 38.14
	},
	{
		"_id": "5a6baefb40c79335e41810c3",
		"latitude": 53,
		"Customer_id": 13,
		"name": "Olive Ahearn",
		"longitude": -7,
		"distanceFromDublinKM": 62.23
	},
	{
		"_id": "5a6baefb40c79335e41810c4",
		"latitude": 51.999447,
		"Customer_id": 14,
		"name": "Helen Cahill",
		"longitude": -9.742744,
		"distanceFromDublinKM": 278.21
	},
	{
		"_id": "5a6baefb40c79335e41810c5",
		"latitude": 52.966,
		"Customer_id": 15,
		"name": "Michael Ahearn",
		"longitude": -6.463,
		"distanceFromDublinKM": 43.72
	},
	{
		"_id": "5a6baefb40c79335e41810c7",
		"latitude": 54.180238,
		"Customer_id": 17,
		"name": "Patricia Cahill",
		"longitude": -5.920898,
		"distanceFromDublinKM": 96.08
	},
	{
		"_id": "5a6baefb40c79335e41810c0",
		"latitude": 53.1302756,
		"Customer_id": 5,
		"name": "Nora Dempsey",
		"longitude": -6.2397222,
		"distanceFromDublinKM": 23.29
	},
	{
		"_id": "5a6baefb40c79335e41810c8",
		"latitude": 53.0033946,
		"Customer_id": 39,
		"name": "Lisa Ahearn",
		"longitude": -6.3877505,
		"distanceFromDublinKM": 38.36
	},
	{
		"_id": "5a6baefb40c79335e41810c9",
		"latitude": 52.228056,
		"Customer_id": 18,
		"name": "Bob Larkin",
		"longitude": -7.915833,
		"distanceFromDublinKM": 166.45
	},
	{
		"_id": "5a6baefb40c79335e41810cb",
		"latitude": 55.033,
		"Customer_id": 19,
		"name": "Enid Cahill",
		"longitude": -8.112,
		"distanceFromDublinKM": 223.63
	},
	{
		"_id": "5a6baefb40c79335e41810c2",
		"latitude": 53.1489345,
		"Customer_id": 31,
		"name": "Alan Behan",
		"longitude": -6.8422408,
		"distanceFromDublinKM": 44.29
	},
	{
		"_id": "5a6baefb40c79335e41810cc",
		"latitude": 53.521111,
		"Customer_id": 20,
		"name": "Enid Enright",
		"longitude": -9.831111,
		"distanceFromDublinKM": 237.58
	},
	{
		"_id": "5a6baefb40c79335e41810cf",
		"latitude": 53.74452,
		"Customer_id": 29,
		"name": "Oliver Ahearn",
		"longitude": -7.11167,
		"distanceFromDublinKM": 72.2
	},
	{
		"_id": "5a6baefb40c79335e41810cd",
		"latitude": 51.802,
		"Customer_id": 21,
		"name": "David Ahearn",
		"longitude": -9.442,
		"distanceFromDublinKM": 274.8
	},
	{
		"_id": "5a6baefb40c79335e41810d0",
		"latitude": 53.761389,
		"Customer_id": 30,
		"name": "Nick Enright",
		"longitude": -7.2875,
		"distanceFromDublinKM": 82.64
	},
	{
		"_id": "5a6baefb40c79335e41810c6",
		"latitude": 52.366037,
		"Customer_id": 16,
		"name": "Ian Larkin",
		"longitude": -8.179118,
		"distanceFromDublinKM": 168.4
	},
	{
		"_id": "5a6baefb40c79335e41810d1",
		"latitude": 54.080556,
		"Customer_id": 23,
		"name": "Eoin Gallagher",
		"longitude": -6.361944,
		"distanceFromDublinKM": 82.69
	},
	{
		"_id": "5a6baefb40c79335e41810ca",
		"latitude": 54.133333,
		"Customer_id": 24,
		"name": "Rose Enright",
		"longitude": -6.433333,
		"distanceFromDublinKM": 89.03
	},
	{
		"_id": "5a6baefb40c79335e41810ce",
		"latitude": 54.374208,
		"Customer_id": 22,
		"name": "Charlie McArdle",
		"longitude": -8.371639,
		"distanceFromDublinKM": 180.16
	},
	{
		"_id": "5a6baefb40c79335e41810d2",
		"latitude": 52.833502,
		"Customer_id": 25,
		"name": "David Behan",
		"longitude": -8.522366,
		"distanceFromDublinKM": 161.36
	}
]